{
"type": "FeatureCollection",
"name": "Food_Programs_-4290421966606995004",
"crs": { "type": "name", "properties": { "name": "urn:ogc:def:crs:OGC:1.3:CRS84" } },
"features": [
{ "type": "Feature", "id": 1, "properties": { "OBJECTID": 1, "NAME": "Acorn2Oak Youth Services", "ADDRESS": "1224 Dundas St.E", "MUN": "Mississauga", "PHONE": "905-566-2359", "WEBSITE": "https://acorn2oak.ca/", "FOOD_BANK": "N/A", "Sch_FD_PRO": "N/A", "LEGEND": "Food Pantry", "BREAKFAST": "N/A", "SOUP_KIT": "N/A", "FOOD_EDU": "N/A", "FD_DELIVRY": "YES", "PROGRAM": "Food pantry", "COM_GARDEN": "N/A", "HOURS": "Food Delivery and Food Pantry; bi-weekly on Wednesdays", "UNIT": "25", "PANTRY": "YES", "MULTI_SERV": "N/A", "FEE": "Free", "POSTALCODE": "L4Y 4A2", "EM_DON_CEN": "N/A", "LUNCH": null, "DINNER": null, "MOB_COM_KIT": null }, "geometry": { "type": "Point", "coordinates": [ -79.586928301517304, 43.6054565194896 ] } },
{ "type": "Feature", "id": 3, "properties": { "OBJECTID": 3, "NAME": "All Peoples Church", "ADDRESS": "41 Finchgate Blvd", "MUN": "Brampton", "PHONE": "437-317-9517", "WEBSITE": "https://allpeopleschurch.ca/foodhub/", "FOOD_BANK": "YES", "Sch_FD_PRO": "N/A", "LEGEND": "Food Bank", "BREAKFAST": "N/A", "SOUP_KIT": "N/A", "FOOD_EDU": "N/A", "FD_DELIVRY": "N/A", "PROGRAM": "Food bank", "COM_GARDEN": "N/A", "HOURS": "Tuesdays 5:30-7:00pm", "UNIT": null, "PANTRY": "N/A", "MULTI_SERV": "N/A", "FEE": "Free", "POSTALCODE": "L6T 3H8", "EM_DON_CEN": "N/A", "LUNCH": null, "DINNER": null, "MOB_COM_KIT": null }, "geometry": { "type": "Point", "coordinates": [ -79.713158625621404, 43.727524753340496 ] } },
{ "type": "Feature", "id": 20, "properties": { "OBJECTID": 20, "NAME": "Caledon Community Services - The Exchange", "ADDRESS": "55 Healey Rd", "MUN": "Caledon", "PHONE": "289-966-1715", "WEBSITE": "https://ccs4u.org/the-exchange/", "FOOD_BANK": "YES", "Sch_FD_PRO": "N/A", "LEGEND": "Multi-Service Program", "BREAKFAST": "N/A", "SOUP_KIT": "N/A", "FOOD_EDU": "YES", "FD_DELIVRY": "N/A", "PROGRAM": "Multi-service Food bank, Food education (communal cooking)", "COM_GARDEN": "N/A", "HOURS": "9am-4:30pm", "UNIT": null, "PANTRY": "N/A", "MULTI_SERV": "YES", "FEE": "Free", "POSTALCODE": "L7E 5A2", "EM_DON_CEN": "N/A", "LUNCH": null, "DINNER": null, "MOB_COM_KIT": null }, "geometry": { "type": "Point", "coordinates": [ -79.718480035045403, 43.863121613163102 ] } },
{ "type": "Feature", "id": 33, "properties": { "OBJECTID": 33, "NAME": "Deacon's Cupboard St. Peter's Church Erindale", "ADDRESS": "3041 Mississauga Rd", "MUN": "Mississauga", "PHONE": "905-828-1588", "WEBSITE": "https://www.stpeterserindale.ca/deacons-cupboard/", "FOOD_BANK": "N/A", "Sch_FD_PRO": "N/A", "LEGEND": "Food Pantry", "BREAKFAST": "N/A", "SOUP_KIT": "N/A", "FOOD_EDU": "N/A", "FD_DELIVRY": "N/A", "PROGRAM": "Food pantry", "COM_GARDEN": "N/A", "HOURS": "Wed: 9:00am-1:00pm; and the last Monday of each month from 5:30pm-7:30pm", "UNIT": null, "PANTRY": "YES", "MULTI_SERV": "N/A", "FEE": "Free", "POSTALCODE": "L5L 0B7", "EM_DON_CEN": "N/A", "LUNCH": null, "DINNER": null, "MOB_COM_KIT": null }, "geometry": { "type": "Point", "coordinates": [ -79.659031043963395, 43.5434047577711 ] } },
{ "type": "Feature", "id": 39, "properties": { "OBJECTID": 39, "NAME": "Ecosource", "ADDRESS": "5070 Fairwind Dr", "MUN": "Mississauga", "PHONE": "905-274-6222", "WEBSITE": "https://ecosource.ca/msura/", "FOOD_BANK": "YES", "Sch_FD_PRO": "N/A", "LEGEND": "Multi-Service Program", "BREAKFAST": "N/A", "SOUP_KIT": "N/A", "FOOD_EDU": "YES", "FD_DELIVRY": "YES", "PROGRAM": "Multi-service Food bank, Food education (communal cooking, Food delivery)", "COM_GARDEN": "N/A", "HOURS": "Wed: 2pm-4pm", "UNIT": null, "PANTRY": "N/A", "MULTI_SERV": "YES", "FEE": "Free", "POSTALCODE": "L5R 2N4", "EM_DON_CEN": "N/A", "LUNCH": null, "DINNER": null, "MOB_COM_KIT": null }, "geometry": { "type": "Point", "coordinates": [ -79.661503503633, 43.603698060349103 ] } },
{ "type": "Feature", "id": 40, "properties": { "OBJECTID": 40, "NAME": "Eden Food for Change", "ADDRESS": "274  Queen St S", "MUN": "Mississauga", "PHONE": "905-785-3651", "WEBSITE": "https://edenffc.org/", "FOOD_BANK": "N/A", "Sch_FD_PRO": "N/A", "LEGEND": "Food Bank", "BREAKFAST": "N/A", "SOUP_KIT": "N/A", "FOOD_EDU": "N/A", "FD_DELIVRY": "N/A", "PROGRAM": "Food pantry", "COM_GARDEN": "N/A", "HOURS": "Wednesdays 2:00-5:00pm", "UNIT": null, "PANTRY": "YES", "MULTI_SERV": "N/A", "FEE": "Free", "POSTALCODE": "L5M 1L8", "EM_DON_CEN": "N/A", "LUNCH": null, "DINNER": null, "MOB_COM_KIT": null }, "geometry": { "type": "Point", "coordinates": [ -79.711053309413003, 43.579416329384102 ] } },
{ "type": "Feature", "id": 41, "properties": { "OBJECTID": 41, "NAME": "Eden Food for Change-1", "ADDRESS": "3051 Battleford Rd", "MUN": "Mississauga", "PHONE": "905-785-3651", "WEBSITE": "https://edenffc.org/index.php?_route_=foodbank", "FOOD_BANK": "YES", "Sch_FD_PRO": "N/A", "LEGEND": "Multi-Service Program", "BREAKFAST": "N/A", "SOUP_KIT": "N/A", "FOOD_EDU": "YES", "FD_DELIVRY": "YES", "PROGRAM": "Multi-service Food bank, Food education (communal cooking, Food delivery)", "COM_GARDEN": "N/A", "HOURS": "Mon-Fri: 9:00am-5:00pm", "UNIT": null, "PANTRY": "N/A", "MULTI_SERV": "YES", "FEE": "Free", "POSTALCODE": "L5N 5Z9", "EM_DON_CEN": "N/A", "LUNCH": null, "DINNER": null, "MOB_COM_KIT": null }, "geometry": { "type": "Point", "coordinates": [ -79.760004025856404, 43.579322183955099 ] } },
{ "type": "Feature", "id": 42, "properties": { "OBJECTID": 42, "NAME": "Eden Food for Change-2", "ADDRESS": "3185 Unity Dr", "MUN": "Mississauga", "PHONE": "905-785-3651", "WEBSITE": "https://edenffc.org/foodbank", "FOOD_BANK": "YES", "Sch_FD_PRO": "N/A", "LEGEND": "Multi-Service Program", "BREAKFAST": "N/A", "SOUP_KIT": "YES", "FOOD_EDU": "YES", "FD_DELIVRY": "YES", "PROGRAM": "Multi-service Food bank, Soup kitchen, Food education (communal cooking, Food delivery)", "COM_GARDEN": "N/A", "HOURS": "Tues: 5pm-8pm, Wed: 1pm-4pm, Fri: 10am-1pm", "UNIT": null, "PANTRY": "N/A", "MULTI_SERV": "YES", "FEE": "Free", "POSTALCODE": "L4W 4L9", "EM_DON_CEN": "N/A", "LUNCH": null, "DINNER": null, "MOB_COM_KIT": null }, "geometry": { "type": "Point", "coordinates": [ -79.710585812993102, 43.537100955950798 ] } },
{ "type": "Feature", "id": 65, "properties": { "OBJECTID": 65, "NAME": "Grace Mt. Zion Apostolic Church", "ADDRESS": "5865 Coopers Ave", "MUN": "Mississauga", "PHONE": "905-501-8958", "WEBSITE": "https://www.graceconnected.com", "FOOD_BANK": "YES", "Sch_FD_PRO": "N/A", "LEGEND": "Food Bank", "BREAKFAST": "N/A", "SOUP_KIT": "N/A", "FOOD_EDU": "N/A", "FD_DELIVRY": "N/A", "PROGRAM": "Food bank", "COM_GARDEN": "N/A", "HOURS": "Fri: 6pm-8pm; last Sat of each month: 11am-1pm", "UNIT": null, "PANTRY": "N/A", "MULTI_SERV": "N/A", "FEE": "Free", "POSTALCODE": "L4Z 1R9", "EM_DON_CEN": "N/A", "LUNCH": null, "DINNER": null, "MOB_COM_KIT": null }, "geometry": { "type": "Point", "coordinates": [ -79.662416628023806, 43.6350190530435 ] } },
{ "type": "Feature", "id": 69, "properties": { "OBJECTID": 69, "NAME": "Gurdwara Sikh Sangat", "ADDRESS": "32 Regan Rd", "MUN": "Brampton", "PHONE": "416-996-4355", "WEBSITE": null, "FOOD_BANK": "N/A", "Sch_FD_PRO": "N/A", "LEGEND": "Community Meal Program (Soup Kitchen)", "BREAKFAST": "N/A", "SOUP_KIT": "YES", "FOOD_EDU": "N/A", "FD_DELIVRY": "N/A", "PROGRAM": "Soup kitchen", "COM_GARDEN": "N/A", "HOURS": "4am-10pm", "UNIT": null, "PANTRY": "N/A", "MULTI_SERV": "N/A", "FEE": "Free", "POSTALCODE": "L7A 1A7", "EM_DON_CEN": "N/A", "LUNCH": null, "DINNER": null, "MOB_COM_KIT": null }, "geometry": { "type": "Point", "coordinates": [ -79.807010307488, 43.704198694952296 ] } },
{ "type": "Feature", "id": 86, "properties": { "OBJECTID": 86, "NAME": "ISNA Canada:Food Bank", "ADDRESS": "2200 South Sheridan Way", "MUN": "Mississauga", "PHONE": "905-403-8406", "WEBSITE": "https://www.isnacanada.com/", "FOOD_BANK": "YES", "Sch_FD_PRO": "N/A", "LEGEND": "Community Kitchen", "BREAKFAST": "N/A", "SOUP_KIT": "N/A", "FOOD_EDU": "N/A", "FD_DELIVRY": "N/A", "PROGRAM": "Families registered with ISNA Food Bank are automatically eligible for programs such as Qurbani meat distribution, Eid gift drive, back-to-school pkg. monthly community kitchen.", "COM_GARDEN": "N/A", "HOURS": "First Saturday of every month 7:00am - 11:00am", "UNIT": null, "PANTRY": "N/A", "MULTI_SERV": "YES", "FEE": "Free", "POSTALCODE": "L5J2M4", "EM_DON_CEN": "N/A", "LUNCH": null, "DINNER": null, "MOB_COM_KIT": null }, "geometry": { "type": "Point", "coordinates": [ -79.649670708760596, 43.519680811805898 ] } },
{ "type": "Feature", "id": 92, "properties": { "OBJECTID": 92, "NAME": "Knights Table", "ADDRESS": "287 Glidden Rd", "MUN": "Brampton", "PHONE": "905-454-8725", "WEBSITE": "https://knightstable.org/", "FOOD_BANK": "YES", "Sch_FD_PRO": "N/A", "LEGEND": "Food Bank", "BREAKFAST": "YES", "SOUP_KIT": "YES", "FOOD_EDU": "YES", "FD_DELIVRY": "YES", "PROGRAM": "Multi-Service, Foodbank, School food program, Breakfast, Lunch, Dinner, Soup kitchen, Food Education, Food Delivery, Food Pantry, Mobile Community Kitchen", "COM_GARDEN": "N/A", "HOURS": "Open 7 days/week; 365 days/year; Breakfast 8am-10am; Lunch & Dinner 10am-6pm; Food Bank: M-F 10am-4pm; Contact the office for hours of all other services.", "UNIT": null, "PANTRY": "YES", "MULTI_SERV": "YES", "FEE": "Free", "POSTALCODE": "L6W 1H9", "EM_DON_CEN": "N/A", "LUNCH": "YES", "DINNER": "YES", "MOB_COM_KIT": "YES" }, "geometry": { "type": "Point", "coordinates": [ -79.730159133347101, 43.682680903132201 ] } },
{ "type": "Feature", "id": 104, "properties": { "OBJECTID": 104, "NAME": "Mississauga Seventh Day Adventist Church", "ADDRESS": "2250 Credit Valley Rd", "MUN": "Mississauga", "PHONE": "905-608-0013", "WEBSITE": "https://www.mississaugasda.com/upcoming-events", "FOOD_BANK": "N/A", "Sch_FD_PRO": "N/A", "LEGEND": "Food Pantry", "BREAKFAST": "N/A", "SOUP_KIT": "N/A", "FOOD_EDU": "N/A", "FD_DELIVRY": "N/A", "PROGRAM": "Food pantry", "COM_GARDEN": "N/A", "HOURS": "Wed at 12pm-2pm", "UNIT": null, "PANTRY": "YES", "MULTI_SERV": "N/A", "FEE": "Free", "POSTALCODE": "L5M 4L9", "EM_DON_CEN": "N/A", "LUNCH": null, "DINNER": null, "MOB_COM_KIT": null }, "geometry": { "type": "Point", "coordinates": [ -79.701455882916207, 43.555762134527498 ] } },
{ "type": "Feature", "id": 107, "properties": { "OBJECTID": 107, "NAME": "Mount Zion Apostolic Church", "ADDRESS": "6810 Professional Crt", "MUN": "Mississauga", "PHONE": "905-677-8389", "WEBSITE": "https://www.mzaccanada.com/index.php/ministries/care-ministry", "FOOD_BANK": "YES", "Sch_FD_PRO": "N/A", "LEGEND": "Food Bank", "BREAKFAST": "N/A", "SOUP_KIT": "N/A", "FOOD_EDU": "N/A", "FD_DELIVRY": "N/A", "PROGRAM": "Food bank", "COM_GARDEN": "N/A", "HOURS": "Fri: 2pm-6pm", "UNIT": null, "PANTRY": "N/A", "MULTI_SERV": "N/A", "FEE": "Free", "POSTALCODE": "L4V 1X6", "EM_DON_CEN": "N/A", "LUNCH": null, "DINNER": null, "MOB_COM_KIT": null }, "geometry": { "type": "Point", "coordinates": [ -79.630791710862098, 43.706876740172 ] } },
{ "type": "Feature", "id": 116, "properties": { "OBJECTID": 116, "NAME": "Peel Youth Village", "ADDRESS": "99 Acorn Place", "MUN": "Mississauga", "PHONE": "905-791-5576", "WEBSITE": "https://www.peelregion.ca/ow/ourservices/community-program/housing/pyv/live/", "FOOD_BANK": "N/A", "Sch_FD_PRO": "N/A", "LEGEND": "Multi-Service Program", "BREAKFAST": "YES", "SOUP_KIT": "N/A", "FOOD_EDU": "YES", "FD_DELIVRY": "N/A", "PROGRAM": "Multi-service Breakfast, Food education (communal cooking)", "COM_GARDEN": "N/A", "HOURS": "Mon-Fri: 7:30am-8:30am", "UNIT": null, "PANTRY": "N/A", "MULTI_SERV": "YES", "FEE": "Free", "POSTALCODE": "L4Z 4E2", "EM_DON_CEN": "N/A", "LUNCH": null, "DINNER": null, "MOB_COM_KIT": null }, "geometry": { "type": "Point", "coordinates": [ -79.644934318059796, 43.605382437214502 ] } },
{ "type": "Feature", "id": 119, "properties": { "OBJECTID": 119, "NAME": "Praise Cathedral Worship Centre", "ADDRESS": "6785 Millcreek Drive", "MUN": "Mississauga", "PHONE": "647-231-2263", "WEBSITE": "https://www.praisecathedral.ca/food-drive/", "FOOD_BANK": "YES", "Sch_FD_PRO": "N/A", "LEGEND": "Food Bank", "BREAKFAST": "N/A", "SOUP_KIT": "N/A", "FOOD_EDU": "N/A", "FD_DELIVRY": "YES", "PROGRAM": "Volunteers can deliver a food hamper to your home if you do not have access to a vehicle. Contact the church office to provide your name and address to the volunteers or e-mail Rev. Donna Hill", "COM_GARDEN": "N/A", "HOURS": "Third Thursday of every month 6:00pm – 7:00pm Delivery available", "UNIT": null, "PANTRY": "N/A", "MULTI_SERV": "YES", "FEE": "Free", "POSTALCODE": "L5N5M4", "EM_DON_CEN": "N/A", "LUNCH": null, "DINNER": null, "MOB_COM_KIT": null }, "geometry": { "type": "Point", "coordinates": [ -79.752751870222696, 43.595791013616498 ] } },
{ "type": "Feature", "id": 122, "properties": { "OBJECTID": 122, "NAME": "Regeneration Outreach Community", "ADDRESS": "156 Main St N", "MUN": "Brampton", "PHONE": "905-796-5888", "WEBSITE": "https://www.regenbrampton.com", "FOOD_BANK": "N/A", "Sch_FD_PRO": "N/A", "LEGEND": "Multi-Service Program", "BREAKFAST": "YES", "SOUP_KIT": "YES", "FOOD_EDU": "N/A", "FD_DELIVRY": "N/A", "PROGRAM": "Multi-service Breakfast, Soup kitchen, Community garden", "COM_GARDEN": "YES", "HOURS": "7 days/week-breakfast 7am-9:30am; Mon-Thurs lunch 11:30am-12:30pm; Food Bank available on Wednesdays 12pm-2pm at Thrift Store location", "UNIT": null, "PANTRY": "N/A", "MULTI_SERV": "YES", "FEE": "Free", "POSTALCODE": "L6V 1N9", "EM_DON_CEN": "N/A", "LUNCH": null, "DINNER": null, "MOB_COM_KIT": null }, "geometry": { "type": "Point", "coordinates": [ -79.763090355957004, 43.688895123919302 ] } },
{ "type": "Feature", "id": 123, "properties": { "OBJECTID": 123, "NAME": "Regeneration Thrift Store", "ADDRESS": "253 Queen St", "MUN": "Brampton", "PHONE": "905-702-6468", "WEBSITE": null, "FOOD_BANK": "YES", "Sch_FD_PRO": "N/A", "LEGEND": "Food Bank", "BREAKFAST": "N/A", "SOUP_KIT": "N/A", "FOOD_EDU": "N/A", "FD_DELIVRY": "N/A", "PROGRAM": "Food bank", "COM_GARDEN": "N/A", "HOURS": "Wed 12pm-2pm", "UNIT": null, "PANTRY": "N/A", "MULTI_SERV": "N/A", "FEE": "Free", "POSTALCODE": "L6W 2B8", "EM_DON_CEN": "N/A", "LUNCH": null, "DINNER": null, "MOB_COM_KIT": null }, "geometry": { "type": "Point", "coordinates": [ -79.743811963092796, 43.698994617345598 ] } },
{ "type": "Feature", "id": 133, "properties": { "OBJECTID": 133, "NAME": "Sacred Hands Canada", "ADDRESS": "5004 Timberlea Blvd", "MUN": "Mississauga", "PHONE": "905-624-0333", "WEBSITE": "https://www.sacredhandcanada.com/", "FOOD_BANK": "YES", "Sch_FD_PRO": "N/A", "LEGEND": "Food Bank", "BREAKFAST": "N/A", "SOUP_KIT": "YES", "FOOD_EDU": "N/A", "FD_DELIVRY": "N/A", "PROGRAM": "Food bank", "COM_GARDEN": "N/A", "HOURS": "Foodbank  Monday-Thursday 11:00am-1:00pm and 2:00pm-3:30 pm Saturday 11:00am-1:00pm. Closed on Friday and Sunday. All other services Monday-Saturday 10:00-5:00pm", "UNIT": "26-29", "PANTRY": "YES", "MULTI_SERV": "N/A", "FEE": "Free", "POSTALCODE": "L4W 5C5", "EM_DON_CEN": "N/A", "LUNCH": null, "DINNER": null, "MOB_COM_KIT": null }, "geometry": { "type": "Point", "coordinates": [ -79.634181406383206, 43.627044438859897 ] } },
{ "type": "Feature", "id": 134, "properties": { "OBJECTID": 134, "NAME": "Sai Dham Food Bank", "ADDRESS": "7140 Goreway Dr", "MUN": "Mississauga", "PHONE": "905-956-2646", "WEBSITE": "https://www.saidhamfoodbank.com/programs", "FOOD_BANK": "YES", "Sch_FD_PRO": "N/A", "LEGEND": "Multi-Service Program", "BREAKFAST": "N/A", "SOUP_KIT": "YES", "FOOD_EDU": "N/A", "FD_DELIVRY": "YES", "PROGRAM": "Multi-service Food bank, Soup kitchen, Food delivery, Community garden", "COM_GARDEN": "YES", "HOURS": "Open every day 10am-10pm; and available by phone 24/7", "UNIT": null, "PANTRY": "N/A", "MULTI_SERV": "YES", "FEE": "Free", "POSTALCODE": "L4T 2J6", "EM_DON_CEN": "N/A", "LUNCH": null, "DINNER": null, "MOB_COM_KIT": null }, "geometry": { "type": "Point", "coordinates": [ -79.635652941899195, 43.716075741938099 ] } },
{ "type": "Feature", "id": 136, "properties": { "OBJECTID": 136, "NAME": "Salvation Army Cornerstone Community Church", "ADDRESS": "3020 Vanderbilt Rd", "MUN": "Mississauga", "PHONE": "905-824-0450", "WEBSITE": null, "FOOD_BANK": "YES", "Sch_FD_PRO": "N/A", "LEGEND": "Food Bank", "BREAKFAST": "N/A", "SOUP_KIT": "N/A", "FOOD_EDU": "N/A", "FD_DELIVRY": "N/A", "PROGRAM": "Food bank", "COM_GARDEN": "N/A", "HOURS": "Tues and Thurs 9am-12pm and 1pm-3pm; Friday 6-8pm", "UNIT": null, "PANTRY": "N/A", "MULTI_SERV": "N/A", "FEE": "Free", "POSTALCODE": "L5N 4W8", "EM_DON_CEN": "N/A", "LUNCH": null, "DINNER": null, "MOB_COM_KIT": null }, "geometry": { "type": "Point", "coordinates": [ -79.766362486308495, 43.584176705424902 ] } },
{ "type": "Feature", "id": 137, "properties": { "OBJECTID": 137, "NAME": "Salvation Army Erin Mills Branch", "ADDRESS": "2460 The Collegeway", "MUN": "Mississauga", "PHONE": "905-820-6868", "WEBSITE": "https://www.salvationarmyerinmills.com/family-services/", "FOOD_BANK": "YES", "Sch_FD_PRO": "N/A", "LEGEND": "Food Bank", "BREAKFAST": "N/A", "SOUP_KIT": "N/A", "FOOD_EDU": "N/A", "FD_DELIVRY": "N/A", "PROGRAM": "Food bank", "COM_GARDEN": "N/A", "HOURS": "Mon 9am-12pm & 1:30pm-3:30pm; Wed: 9am-12pm; Fri: 9am-12pm", "UNIT": null, "PANTRY": "N/A", "MULTI_SERV": "N/A", "FEE": "Free", "POSTALCODE": "L5L 1V3", "EM_DON_CEN": "N/A", "LUNCH": null, "DINNER": null, "MOB_COM_KIT": null }, "geometry": { "type": "Point", "coordinates": [ -79.685953991401902, 43.5360268250828 ] } },
{ "type": "Feature", "id": 138, "properties": { "OBJECTID": 138, "NAME": "Salvation Army Mississauga Branch", "ADDRESS": "3167 Cawthra Rd", "MUN": "Mississauga", "PHONE": "905-279-3941", "WEBSITE": "https://www.foodbankmississauga.com/food-bank/", "FOOD_BANK": "YES", "Sch_FD_PRO": "N/A", "LEGEND": "Food Bank", "BREAKFAST": "N/A", "SOUP_KIT": "N/A", "FOOD_EDU": "N/A", "FD_DELIVRY": "N/A", "PROGRAM": "Food bank", "COM_GARDEN": "N/A", "HOURS": "Mon-Tue: 9:00am-12pm and 1:00pm-3:30pm; Wed: 9am-12pm and 1pm-6:30pm; Thurs: 1pm-3:30pm; Fri: 9am-12pm", "UNIT": null, "PANTRY": "N/A", "MULTI_SERV": "N/A", "FEE": "Free", "POSTALCODE": "L5A 2X4", "EM_DON_CEN": "N/A", "LUNCH": null, "DINNER": null, "MOB_COM_KIT": null }, "geometry": { "type": "Point", "coordinates": [ -79.603354771018104, 43.598727432766502 ] } },
{ "type": "Feature", "id": 141, "properties": { "OBJECTID": 141, "NAME": "Seva Food Bank", "ADDRESS": "2832 Slough St", "MUN": "Mississauga", "PHONE": "905-361-7382", "WEBSITE": "https://www.sevafoodbank.com/plan-your-visit/", "FOOD_BANK": "YES", "Sch_FD_PRO": "N/A", "LEGEND": "Multi-Service Program", "BREAKFAST": "N/A", "SOUP_KIT": "N/A", "FOOD_EDU": "YES", "FD_DELIVRY": "N/A", "PROGRAM": "Multi-service Food bank, Food education (communal cooking)", "COM_GARDEN": "N/A", "HOURS": "Mon 5:30pm-7:30pm; Tues 1:30pm-3:30pm; Thurs 5:30pm-7:30pm; Fri 12:30pm-2:30pm", "UNIT": null, "PANTRY": "N/A", "MULTI_SERV": "YES", "FEE": "Free", "POSTALCODE": "L4T 1G3", "EM_DON_CEN": "N/A", "LUNCH": null, "DINNER": null, "MOB_COM_KIT": null }, "geometry": { "type": "Point", "coordinates": [ -79.656508309691404, 43.709923038660897 ] } },
{ "type": "Feature", "id": 142, "properties": { "OBJECTID": 142, "NAME": "Seva Food Bank", "ADDRESS": "3413 Wolfedale Rd", "MUN": "Mississauga", "PHONE": "905-361-7382", "WEBSITE": "https://www.sevafoodbank.com/plan-your-visit/", "FOOD_BANK": "YES", "Sch_FD_PRO": "N/A", "LEGEND": "Food Bank", "BREAKFAST": "N/A", "SOUP_KIT": "N/A", "FOOD_EDU": "N/A", "FD_DELIVRY": "N/A", "PROGRAM": "Food bank", "COM_GARDEN": "N/A", "HOURS": "Wed 5:30pm-7:30pm, Thurs 5:30pm-7:30pm, Fri 1:30pm-3:30pm", "UNIT": "10", "PANTRY": "N/A", "MULTI_SERV": "N/A", "FEE": "Free", "POSTALCODE": "L5C 1V8", "EM_DON_CEN": "N/A", "LUNCH": null, "DINNER": null, "MOB_COM_KIT": null }, "geometry": { "type": "Point", "coordinates": [ -79.646917352696605, 43.571654781028897 ] } },
{ "type": "Feature", "id": 151, "properties": { "OBJECTID": 151, "NAME": "Sri Guru Nanak Sikh Centre", "ADDRESS": "99 Glidden Rd", "MUN": "Brampton", "PHONE": "416-996-4355", "WEBSITE": null, "FOOD_BANK": "N/A", "Sch_FD_PRO": "N/A", "LEGEND": "Community Meal Program (Soup Kitchen)", "BREAKFAST": "N/A", "SOUP_KIT": "YES", "FOOD_EDU": "N/A", "FD_DELIVRY": "N/A", "PROGRAM": "Soup kitchen", "COM_GARDEN": "N/A", "HOURS": "4am-10pm", "UNIT": null, "PANTRY": "N/A", "MULTI_SERV": "N/A", "FEE": "Free", "POSTALCODE": "L6T 5N4", "EM_DON_CEN": "N/A", "LUNCH": null, "DINNER": null, "MOB_COM_KIT": null }, "geometry": { "type": "Point", "coordinates": [ -79.716075441908202, 43.694003890334102 ] } },
{ "type": "Feature", "id": 159, "properties": { "OBJECTID": 159, "NAME": "St. Hilary's Food Cupboard", "ADDRESS": "2055 Hurontario St", "MUN": "Mississauga", "PHONE": "905-279-2304", "WEBSITE": "https://sthilarys.com/", "FOOD_BANK": "N/A", "Sch_FD_PRO": "N/A", "LEGEND": "Food Pantry", "BREAKFAST": "N/A", "SOUP_KIT": "N/A", "FOOD_EDU": "N/A", "FD_DELIVRY": "N/A", "PROGRAM": "Food pantry", "COM_GARDEN": "N/A", "HOURS": "Thurs: 10am-12pm", "UNIT": null, "PANTRY": "YES", "MULTI_SERV": "N/A", "FEE": "Free", "POSTALCODE": "L5A 2E6", "EM_DON_CEN": "N/A", "LUNCH": null, "DINNER": null, "MOB_COM_KIT": null }, "geometry": { "type": "Point", "coordinates": [ -79.600348032002898, 43.570180517508099 ] } },
{ "type": "Feature", "id": 167, "properties": { "OBJECTID": 167, "NAME": "St. Mary's Food Bank - Coopers", "ADDRESS": "5715 Coopers Ave", "MUN": "Mississauga", "PHONE": "905-890-0900", "WEBSITE": "https://stmarysfoodbank.ca/#services", "FOOD_BANK": "YES", "Sch_FD_PRO": "N/A", "LEGEND": "Food Bank", "BREAKFAST": "N/A", "SOUP_KIT": "N/A", "FOOD_EDU": "N/A", "FD_DELIVRY": "N/A", "PROGRAM": "Food bank", "COM_GARDEN": "N/A", "HOURS": "Tues 12-2pm, Wed 7-9pm, Thurs 7-9pm", "UNIT": "4", "PANTRY": "N/A", "MULTI_SERV": "N/A", "FEE": "Free", "POSTALCODE": "L4Z 0C5", "EM_DON_CEN": "N/A", "LUNCH": null, "DINNER": null, "MOB_COM_KIT": null }, "geometry": { "type": "Point", "coordinates": [ -79.660817598078097, 43.631511825129898 ] } },
{ "type": "Feature", "id": 168, "properties": { "OBJECTID": 168, "NAME": "St. Mary's Food Bank - Dundas", "ADDRESS": "1699 Dundas St E", "MUN": "Mississauga", "PHONE": "905-238-9008", "WEBSITE": "https://stmarysfoodbank.ca/", "FOOD_BANK": "YES", "Sch_FD_PRO": "N/A", "LEGEND": "Food Bank", "BREAKFAST": "N/A", "SOUP_KIT": "N/A", "FOOD_EDU": "N/A", "FD_DELIVRY": "N/A", "PROGRAM": "Food bank", "COM_GARDEN": "N/A", "HOURS": "Mon 6-8pm; Tues 6-8pm; Wed 11:30am-2:00pm", "UNIT": null, "PANTRY": "N/A", "MULTI_SERV": "N/A", "FEE": "Free", "POSTALCODE": "L4X 1L5", "EM_DON_CEN": "N/A", "LUNCH": null, "DINNER": null, "MOB_COM_KIT": null }, "geometry": { "type": "Point", "coordinates": [ -79.577497384105698, 43.616211934651297 ] } },
{ "type": "Feature", "id": 169, "properties": { "OBJECTID": 169, "NAME": "St. Mary's Food Bank - Streetsville", "ADDRESS": "6277 Mississauga Rd", "MUN": "Mississauga", "PHONE": "905-286-9987", "WEBSITE": "https://stmarysfoodbank.ca/", "FOOD_BANK": "YES", "Sch_FD_PRO": "N/A", "LEGEND": "Food Bank", "BREAKFAST": "N/A", "SOUP_KIT": "N/A", "FOOD_EDU": "N/A", "FD_DELIVRY": "N/A", "PROGRAM": "Food bank", "COM_GARDEN": "N/A", "HOURS": "Monday 6:00pm- 8:00pm & Wednesday 1:00pm-3:00pm", "UNIT": null, "PANTRY": "N/A", "MULTI_SERV": "N/A", "FEE": "Free", "POSTALCODE": "L5N 1A7", "EM_DON_CEN": "N/A", "LUNCH": null, "DINNER": null, "MOB_COM_KIT": null }, "geometry": { "type": "Point", "coordinates": [ -79.729449197158999, 43.593876773029002 ] } },
{ "type": "Feature", "id": 171, "properties": { "OBJECTID": 171, "NAME": "St. Paul's United Church", "ADDRESS": "30 Main St S", "MUN": "Brampton", "PHONE": "905-451-1405", "WEBSITE": "https://www.stpauls.brampton.on.ca/", "FOOD_BANK": "N/A", "Sch_FD_PRO": "N/A", "LEGEND": "Food Pantry", "BREAKFAST": "N/A", "SOUP_KIT": "N/A", "FOOD_EDU": "N/A", "FD_DELIVRY": "N/A", "PROGRAM": "Food pantry", "COM_GARDEN": "N/A", "HOURS": "Every other Tuesday 1:30pm-3pm", "UNIT": null, "PANTRY": "YES", "MULTI_SERV": "N/A", "FEE": "Free", "POSTALCODE": "L6W 2C4", "EM_DON_CEN": "N/A", "LUNCH": null, "DINNER": null, "MOB_COM_KIT": null }, "geometry": { "type": "Point", "coordinates": [ -79.758576704636894, 43.685334110453198 ] } },
{ "type": "Feature", "id": 179, "properties": { "OBJECTID": 179, "NAME": "The Compass", "ADDRESS": "427 Lakeshore Rd E", "MUN": "Mississauga", "PHONE": "905-274-9309", "WEBSITE": "https://thecompass.ca/", "FOOD_BANK": "YES", "Sch_FD_PRO": "N/A", "LEGEND": "Food Bank", "BREAKFAST": "N/A", "SOUP_KIT": "N/A", "FOOD_EDU": "N/A", "FD_DELIVRY": "N/A", "PROGRAM": "Multi-Service Program", "COM_GARDEN": "N/A", "HOURS": "Mon 9:30-7pm; Wed & Fri 9:30– 5pm", "UNIT": null, "PANTRY": "N/A", "MULTI_SERV": "YES", "FEE": "Free", "POSTALCODE": "L5G 1H8", "EM_DON_CEN": "N/A", "LUNCH": null, "DINNER": null, "MOB_COM_KIT": null }, "geometry": { "type": "Point", "coordinates": [ -79.5720288574406, 43.564903380594203 ] } },
{ "type": "Feature", "id": 181, "properties": { "OBJECTID": 181, "NAME": "The Mississauga Food Bank", "ADDRESS": "3121 Universal Dr", "MUN": "Mississauga", "PHONE": "905-270-5589", "WEBSITE": "https://www.themississaugafoodbank.org/need-food/", "FOOD_BANK": "N/A", "Sch_FD_PRO": "N/A", "LEGEND": "Multi-Service Program", "BREAKFAST": "N/A", "SOUP_KIT": "N/A", "FOOD_EDU": "N/A", "FD_DELIVRY": "YES", "PROGRAM": "Multi-service Food delivery, Food pantry", "COM_GARDEN": "N/A", "HOURS": "Mon, Tues, Thurs: 9am-5pm; Wed: 9am-8pm; Fri: 9am-1pm", "UNIT": null, "PANTRY": "YES", "MULTI_SERV": "YES", "FEE": "Free", "POSTALCODE": "L4X 2E2", "EM_DON_CEN": "N/A", "LUNCH": null, "DINNER": null, "MOB_COM_KIT": null }, "geometry": { "type": "Point", "coordinates": [ -79.573379602069593, 43.624325901532302 ] } },
{ "type": "Feature", "id": 184, "properties": { "OBJECTID": 184, "NAME": "Vita Centre", "ADDRESS": "5659 McAdam Rd", "MUN": "Mississauga", "PHONE": "905-502-7933", "WEBSITE": "https://vitacentre.org/", "FOOD_BANK": "N/A", "Sch_FD_PRO": "N/A", "LEGEND": "Food Pantry", "BREAKFAST": "N/A", "SOUP_KIT": "N/A", "FOOD_EDU": "YES", "FD_DELIVRY": "N/A", "PROGRAM": "Food pantry", "COM_GARDEN": "N/A", "HOURS": "Monday to Friday 8:00 a.m. to 4:00 p.m. No Fee; Registration is required", "UNIT": "C2", "PANTRY": "YES", "MULTI_SERV": "YES", "FEE": "Free", "POSTALCODE": "L4Z 1N9", "EM_DON_CEN": "N/A", "LUNCH": null, "DINNER": null, "MOB_COM_KIT": null }, "geometry": { "type": "Point", "coordinates": [ -79.665165833646796, 43.625171501657299 ] } }
]
}
